facility_id,facility_name,lat,lon,region,fuel_tech
ADP,Adelaide Desalination,-35.096948,138.484061,SA1,"[""Solar"", ""Battery""]"
ALDGASF,Aldoga,-23.839544,151.0849,QLD1,"[""Solar""]"
ANGASTON,Angaston,-34.503948,139.024296,SA1,"[""Distillate""]"
APPIN,Appin,-34.210868,150.792711,NSW1,"[""Gas""]"
ARWF,Ararat,-37.263393,143.082116,VIC1,"[""Wind""]"
AVLSF,Avonlie,-34.919115,146.60954,NSW1,"[""Solar""]"
DEIBDL,Bairnsdale,-37.842231,147.563725,VIC1,"[""Gas""]"
BAKING,Baking Board,-26.721166,150.55417,QLD1,"[""Solar""]"
BHWF,Bald Hills,-38.758189,145.956062,VIC1,"[""Wind""]"
BALBESS,Ballarat,-37.567452,143.852741,VIC1,"[""Battery""]"
BANGOWF,Bango,-34.767208,148.921499,NSW1,"[""Wind""]"
BAPS,Banimboola,-36.534524,147.459788,VIC1,"[""Hydro""]"
BANNSP,Bannerton,-34.67263,142.750362,VIC1,"[""Solar""]"
BARCALDN,Barcaldine,-23.552171,145.314851,QLD1,"[""Gas""]"
BARCSF,Barcaldine,-23.547333,145.318972,QLD1,"[""Solar""]"
BARKIPS,Barker Inlet,-34.804,138.524,SA1,"[""Gas""]"
BARRON,Barron Gorge,-16.85077,145.647049,QLD1,"[""Hydro""]"
BASTYAN,Bastyan,-41.736231,145.531589,TAS1,"[""Hydro""]"
BAYSW,Bayswater,-32.393502,150.953963,NSW1,"[""Coal""]"
BBP31,Bell Bay Three,-41.139324,146.905522,TAS1,"[""Gas""]"
BRYB1WF1,Berrybank,-37.980741,143.472217,VIC1,"[""Wind""]"
BERWICK,Berwick,-37.940819,145.236257,VIC1,"[""Bioenergy""]"
BERYLSF,Beryl,-32.347501,149.460738,NSW1,"[""Solar""]"
BIALAWF,Biala,-34.587836,149.369848,NSW1,"[""Wind""]"
BLAYNEY,Blayney,-33.621944,149.198333,NSW1,"[""Wind""]"
SNOWY6,Blowering,-35.397402,148.247225,NSW1,"[""Hydro""]"
BLUEGSF,Blue Grass,-26.691708,150.500037,QLD1,"[""Solar""]"
BLYTHB,Blyth,-33.848475,138.403204,SA1,"[""Battery""]"
BOCOROCK,Boco Rock,-36.574527,149.124863,NSW1,"[""Wind""]"
BODWF,Bodangora,-32.407128,149.04133,NSW1,"[""Wind""]"
MCKAY,Bogong / Mackay,-36.805471,147.227845,VIC1,"[""Hydro""]"
BOLIVAR,Bolivar,-34.495482,138.387641,SA1,"[""Battery"", ""Solar"", ""Bioenergy""]"
BOLIVPS,Bolivar,-34.7772,138.5826,SA1,"[""Gas""]"
BOMENSF,Bomen,-35.0486,147.4439,NSW1,"[""Solar""]"
BBATTERY,Bouldercombe,-23.563443,150.459658,QLD1,"[""Battery""]"
BRAEMARA,Braemar,-27.111669,150.907647,QLD1,"[""Gas""]"
B2PS,Braemar 2,-27.109873,150.907653,QLD1,"[""Gas""]"
BRNDBES,Brendale,-27.329333,152.974384,QLD1,"[""Battery""]"
BWTR1,Broadwater,-29.016483,153.445756,NSW1,"[""Bioenergy""]"
BHILLGT,Broken Hill,-31.986313,141.42062,NSW1,"[""Distillate""]"
BROKENH,Broken Hill,-31.988905,141.391547,NSW1,"[""Solar""]"
BHB,Broken Hill Battery,-31.9863,141.4204,NSW1,"[""Battery""]"
BROOKLYN,Brooklyn,-37.818597,144.828492,VIC1,"[""Bioenergy""]"
BROWNMT,Brown Mountain,-36.594993,149.473997,NSW1,"[""Hydro""]"
BPLANDF,Browns Plains,-27.674584,153.068499,QLD1,"[""Bioenergy""]"
BULGANA,Bulgana Green Power Hub,-37.039507,142.982799,VIC1,"[""Battery"", ""Wind""]"
BNGSF1,Bungala One,-32.423316,137.841798,SA1,"[""Solar""]"
BNGSF2,Bungala Two,-32.406993,137.840933,SA1,"[""Solar""]"
BDONGHYD,Burrendong,-32.664647,149.108016,NSW1,"[""Hydro""]"
BURRIN,Burrinjuck,-35.003532,148.579891,NSW1,"[""Hydro""]"
BUTLERSG,Butlers Gorge,-42.267107,146.262127,TAS1,"[""Hydro""]"
CALL_B,Callide B,-24.333169,150.626322,QLD1,"[""Coal""]"
CALLIDEC1,Callide C,-24.347222,150.608611,QLD1,"[""Coal""]"
CANUNDA1,Canunda,-37.698303,140.383633,SA1,"[""Wind""]"
CAPBES,Capital,-35.339434,149.216065,NSW1,"[""Battery""]"
CAPTL_WF,Capital,-35.123534,149.500249,NSW1,"[""Wind""]"
CESF,Capital East,-35.180684,149.546482,NSW1,"[""Solar""]"
LI_WY_CA,Catagunya / Liapootah / Wayatinah,-42.376131,146.509824,TAS1,"[""Hydro""]"
CATHROCK,Cathedral Rocks,-34.848741,135.592649,SA1,"[""Wind""]"
CTHLWF,Cattle Hill,-42.154845,146.694693,TAS1,"[""Wind""]"
CETHANA,Cethana,-41.479852,146.134472,TAS1,"[""Hydro""]"
CHALLWF,Challicum Hills,-37.395466,143.10459,VIC1,"[""Wind""]"
CHPSTWF,Chepstowe,-37.596503,143.499582,VIC1,"[""Wind""]"
CHYTWF,Cherry Tree,-37.1018,145.2656,VIC1,"[""Wind""]"
CHILDSF,Childers,-25.295027,152.403674,QLD1,"[""Solar""]"
CHBESS,Chinchilla,-26.918551,150.745399,QLD1,"[""Battery""]"
CBWWBA,Christies Beach,-35.125958,138.47135,SA1,"[""Battery"", ""Solar""]"
CLARESF,Clare,-19.83977,147.21055,QLD1,"[""Solar""]"
CLRKCWF,Clarke Creek,-22.850446,149.453252,QLD1,"[""Wind""]"
CLAYTON,Clayton,-37.950618,145.119681,VIC1,"[""Bioenergy""]"
CLEMGPWF,Clements Gap,-33.489773,138.111695,SA1,"[""Wind""]"
CLERMSF,Clermont,-22.839406,147.546031,QLD1,"[""Solar""]"
CLOVER,Clover,-36.78515,147.219517,VIC1,"[""Hydro""]"
CLUNY,Cluny,-42.506229,146.681123,TAS1,"[""Hydro""]"
CODRGTON,Codrington,-38.282875,141.95496,VIC1,"[""Wind""]"
COHUNSF1,Cohuna,-35.880317,144.221531,VIC1,"[""Solar""]"
COLEASF,Coleambally,-34.759494,145.92984,NSW1,"[""Solar""]"
COLWF01,Collector,-34.823879,149.396795,NSW1,"[""Wind""]"
CSPVPS,Collinsville,-20.55714,147.820552,QLD1,"[""Solar""]"
COLONGRA,Colongra,-33.208781,151.54354,NSW1,"[""Gas""]"
COLUMSF,Columboola,-26.636088,150.28221,QLD1,"[""Solar""]"
CPSA,Condamine A,-26.666673,150.268581,QLD1,"[""Gas""]"
CONDONG1,Condong,-28.314766,153.433808,NSW1,"[""Bioenergy""]"
CBWF,Coonoer Bridge,-36.472722,143.322039,VIC1,"[""Wind""]"
COOPGWF,Coopers Gap,-26.717004,151.449177,QLD1,"[""Wind""]"
COPTNHYD,Copeton,-29.907544,150.930235,NSW1,"[""Hydro""]"
CRWASF1,Corowa,-35.98629,146.361456,NSW1,"[""Solar""]"
CROOKWEL,Crookwell,-34.5165,149.54248,NSW1,"[""Wind""]"
CROOKWF2,Crookwell 2,-34.547676,149.589254,NSW1,"[""Wind""]"
CROOKWF3,Crookwell 3,-34.484645,149.54447,NSW1,"[""Wind""]"
CROWLWF,Crowlands,-36.97615,143.097998,VIC1,"[""Wind""]"
CRURWF1,Crudine Ridge,-32.864748,149.81297,NSW1,"[""Wind""]"
CULCSF,Culcairn,-35.709592,146.981761,NSW1,"[""Solar""]"
CULLERIN,Cullerin Range,-34.750995,149.381027,NSW1,"[""Wind""]"
DALNTH,Dalrymple North,-34.888446,137.758114,SA1,"[""Battery""]"
DDPS1,Darling Downs,-27.116851,150.895391,QLD1,"[""Gas""]"
DDSF,Darling Downs,-27.112,150.8819,QLD1,"[""Solar""]"
DARLSF,Darlington Point,-34.644808,146.035756,NSW1,"[""Solar""]"
DPNTB,Darlington Point,-34.646668,146.034982,NSW1,"[""Battery""]"
DARTM,Dartmouth,-36.55529,147.519872,VIC1,"[""Hydro""]"
DAYDSF,Daydream,-20.512804,147.691968,QLD1,"[""Solar""]"
DEVILS_G,Devils Gate,-41.349925,146.262709,TAS1,"[""Hydro""]"
DIAPURWF,Diapur 2,-36.339953,141.447361,VIC1,"[""Wind""]"
DRYCGT,Dry Creek,-34.847293,138.582297,SA1,"[""Gas""]"
DULAWF,Dulacca,-26.637485,149.870186,QLD1,"[""Wind""]"
DUNDWF,Dundonnell,-37.863894,142.943454,VIC1,"[""Wind""]"
EASTCRK,Eastern Creek,-33.815468,150.854307,NSW1,"[""Bioenergy""]"
EASTCRK2,Eastern Creek 2,-33.815468,150.854307,NSW1,"[""Bioenergy""]"
EDENVSF,Edenvale,-26.947486,150.578494,QLD1,"[""Solar""]"
EILDON,Eildon,-37.221262,145.920966,VIC1,"[""Hydro""]"
EILDONPD,Eildon,-37.221774,145.922582,VIC1,"[""Hydro""]"
ELAINEWF,Elaine,-37.6352,144.0237,VIC1,"[""Wind""]"
EMERASF,Emerald,-23.50879,148.128017,QLD1,"[""Solar""]"
ERARING,Eraring,-33.061548,151.524612,NSW1,"[""Coal""]"
ERB,Eraring,-33.066837,151.515026,NSW1,"[""Battery""]"
ERGT01,Eraring,-33.062117,151.517224,NSW1,"[""Distillate""]"
FWF,Ferguson,-38.610902,143.179321,VIC1,"[""Wind""]"
FINLEYSF,Finley,-35.64421,145.508644,NSW1,"[""Solar""]"
FISHER,Fisher,-41.672662,146.268739,TAS1,"[""Hydro""]"
FLYCRKWF,Flyers Creek,-33.521475,149.045234,NSW1,"[""Wind""]"
GANGARR,Gangarri,-26.254813,149.986704,QLD1,"[""Solar""]"
GANNBESS,Gannawarra,-33.735056,143.779462,VIC1,"[""Battery""]"
GANNSF,Gannawarra,-35.73,143.7711,VIC1,"[""Solar""]"
GERMCRK,German Creek,-22.928526,148.549097,QLD1,"[""Gas""]"
GIRGSF,Girgarre,-26.2548,149.9867,VIC1,"[""Solar""]"
GSTONE,Gladstone,-23.848741,151.220787,QLD1,"[""Coal""]"
GLBWNHYD,Glenbawn,-32.107937,150.999481,NSW1,"[""Hydro""]"
GLENMAGG,Glenmaggie,-37.904836,146.800388,VIC1,"[""Hydro""]"
GLENNCRK,Glennies Creek,-32.464343,151.130432,NSW1,"[""Gas""]"
GLENSF,Glenrowan,-36.464,146.221,VIC1,"[""Solar""]"
GLRWNSF,Glenrowan West,-36.488083,146.146887,VIC1,"[""Solar""]"
GPWFEST,Golden Plains East,-37.9729,143.783,VIC1,"[""Wind""]"
GOONUMSF,Goonumbla,-33.106413,148.099274,NSW1,"[""Solar""]"
GORDON,Gordon,-42.740157,145.983375,TAS1,"[""Hydro""]"
GSWF,Goyder South,-33.682196,138.936249,SA1,"[""Wind""]"
GRANGEAV,Grange Avenue,-33.713011,150.83316,NSW1,"[""Bioenergy""]"
GRANWF,Granville Harbour,-41.802,145.056,TAS1,"[""Wind""]"
GREENB,Greenbank,-27.733562,152.955042,QLD1,"[""Battery""]"
GRIFSF,Griffith,-34.317414,146.120739,NSW1,"[""Solar""]"
GROSV1,Grosvenor 1,-21.929194,148.032416,QLD1,"[""Gas""]"
GROSV2,Grosvenor 2,-21.929194,148.032416,QLD1,"[""Gas""]"
GULLRGWF,Gullen Range,-34.624512,149.458549,NSW1,"[""Solar"", ""Wind""]"
GNNDHSF,Gunnedah,-30.965469,150.367917,NSW1,"[""Solar""]"
GUNNING,Gunning,-34.676361,149.66443,NSW1,"[""Wind""]"
SNOWY3,Guthega,-36.349772,148.41403,NSW1,"[""Hydro""]"
HLMSEW01,Hallam,-38.143332,145.119964,VIC1,"[""Hydro""]"
HALAMRD,Hallam Road,-38.052181,145.267798,VIC1,"[""Bioenergy""]"
AGLHAL,Hallett,-33.34931,138.752633,SA1,"[""Gas""]"
HALLWF,Hallett 1,-33.328434,138.704669,SA1,"[""Wind""]"
HALLWF2,Hallett 2,-33.53821,138.857215,SA1,"[""Wind""]"
HAMISF,Hamilton,-20.468593,147.799484,QLD1,"[""Solar""]"
HAMPTON,Hampton,-33.649722,150.05,NSW1,"[""Wind""]"
HVWW,Happy Valley,-35.063118,138.56476,SA1,"[""Solar"", ""Battery""]"
HASTING,Hastings,-38.295952,145.221926,VIC1,"[""Gas""]"
HAUGHT1,Haughton,-19.732168,147.076137,QLD1,"[""Solar""]"
HD1WF,Hawkesdale,-38.148008,142.360925,VIC1,"[""Wind""]"
HAYMSF,Hayman,-20.487516,147.744778,QLD1,"[""Solar""]"
HBESS,Hazelwood BESS,-38.269216,146.394724,VIC1,"[""Battery""]"
HEPWIND,Hepburn,-37.424555,144.115711,VIC1,"[""Wind""]"
HILLSTN,Hillston Sun,-33.532991,145.522279,NSW1,"[""Solar""]"
HORNSDAL,Hornsdale,-33.05982,138.537673,SA1,"[""Wind""]"
HORNSDAL2,Hornsdale 2,-33.05982,138.537673,SA1,"[""Wind""]"
HORNSDAL3,Hornsdale 3,-33.05982,138.537673,SA1,"[""Wind""]"
HORNSDPR,Hornsdale Power Reserve,-33.085519,138.521914,SA1,"[""Battery""]"
HUGSF,Hughenden,-20.854794,144.186048,QLD1,"[""Solar""]"
HUMENSW,Hume,-36.106383,147.032263,NSW1,"[""Hydro""]"
HUMEV,Hume,-36.106887,147.032572,VIC1,"[""Hydro""]"
HUNTER,Hunter,-32.793406,151.478353,NSW1,"[""Gas""]"
HEZ,Hunter Economic Zone,-32.835481,151.451033,NSW1,"[""Distillate""]"
INVICTA,Invicta Sugar Mill,-19.51579,147.10653,QLD1,"[""Bioenergy""]"
ICSM,Isis Central Sugar Mill,-25.197619,152.206949,QLD1,"[""Bioenergy""]"
JACKSGUL,Jacks Gully,-34.072955,150.743691,NSW1,"[""Bioenergy""]"
JEERA,Jeeralang A,-38.275111,146.427046,VIC1,"[""Gas""]"
JEERB,Jeeralang B,-38.273845,146.424827,VIC1,"[""Gas""]"
JEMALNG1,Jemalong,-33.388764,147.669375,NSW1,"[""Solar""]"
JNDSHPS,Jindabyne,-36.434918,148.63057,NSW1,"[""Hydro""]"
SNWYGJP2,Jindabyne Pump At Guthega,-36.434918,148.63057,NSW1,"[""Pumps""]"
JBUTTERS,John Butters,-42.15589,145.536508,TAS1,"[""Hydro""]"
JOUNAMA,Jounama,-35.561274,148.306384,NSW1,"[""Hydro""]"
JUNEESF,Junee,-34.81124,147.572099,NSW1,"[""Solar""]"
KABANWF,Kaban,-17.560606,145.413125,QLD1,"[""Wind""]"
KARSF,Karadoc,-34.227904,142.28033,VIC1,"[""Solar""]"
KAREEYA,Kareeya,-17.766456,145.576884,QLD1,"[""Hydro""]"
KEEPIT,Keepit,-30.87868,150.491876,NSW1,"[""Hydro""]"
AGLSITA,Kemps Creek,-33.874591,150.761858,NSW1,"[""Bioenergy""]"
KENNEDY,Kennedy Energy Park,-20.872792,144.413034,QLD1,"[""Solar"", ""Battery"", ""Wind""]"
KERNGSP,Kerang,-35.779895,143.941051,VIC1,"[""Solar""]"
KIAMSF1,Kiamal,-35.018133,142.302953,VIC1,"[""Solar""]"
KIATAWF,Kiata,-36.397693,141.746827,VIC1,"[""Wind""]"
KSP1,Kidston,-18.88,144.151,QLD1,"[""Solar""]"
KINGASF,Kingaroy,-26.537087,151.890398,QLD1,"[""Solar""]"
KOGANCK,Kogan Creek,-26.915285,150.748948,QLD1,"[""Coal""]"
KESS1,Koorangie,-35.735367,143.754813,VIC1,"[""Battery""]"
LADBROKE,Ladbroke Grove,-37.456183,140.782699,SA1,"[""Gas""]"
LBBESS,Lake Bonney,-37.738787,140.384672,SA1,"[""Battery""]"
LKBONNY1,Lake Bonney,-37.760504,140.405541,SA1,"[""Wind""]"
LKBONNY_2,Lake Bonney 2,-37.760504,140.405541,SA1,"[""Wind""]"
LKBONNY3,Lake Bonney 3,-37.760504,140.405541,SA1,"[""Wind""]"
LK_ECHO,Lake Echo,-42.253339,146.620515,TAS1,"[""Hydro""]"
LVES,Latrobe Valley,-38.258183,146.418614,VIC1,"[""Battery""]"
LNGS,Laverton North,-37.841693,144.788006,VIC1,"[""Gas""]"
LEM_WIL,Lemonthyme / Wilmot,-41.483135,146.125338,TAS1,"[""Hydro""]"
LILYVASF,Lilyvale,-23.070504,148.413865,QLD1,"[""Solar""]"
LIMBESS,Limondale,-34.769354,143.559464,NSW1,"[""Battery""]"
LIMOSF1,Limondale,-34.775502,143.508046,NSW1,"[""Solar""]"
LIMOSF2,Limondale 2,-34.775502,143.508046,NSW1,"[""Solar""]"
LGAPWF1,Lincoln Gap,-32.546333,137.552763,SA1,"[""Wind""]"
LONGFORD,Longford,-38.223244,147.1631,VIC1,"[""Gas""]"
LRSF,Longreach,-23.455048,144.227917,QLD1,"[""Solar""]"
LONSDALE,Lonsdale,-35.109718,138.490962,SA1,"[""Distillate""]"
LOYYANGA,Loy Yang A,-38.250622,146.576361,VIC1,"[""Coal""]"
LOYYB,Loy Yang B,-38.253619,146.585593,VIC1,"[""Coal""]"
LUCASHGT,Lucas Heights,-34.04829,150.973916,NSW1,"[""Bioenergy""]"
LUCAS2S2,Lucas Heights 2,-34.044088,150.972475,NSW1,"[""Bioenergy""]"
MACARTH,Macarthur,-38.043483,142.179081,VIC1,"[""Wind""]"
MCINTYR,MacIntyre,-28.2163,152.0327,QLD1,"[""Wind""]"
MACKAY,Mackay,-21.144441,149.159171,QLD1,"[""Distillate""]"
MACKNTSH,Mackintosh,-41.701363,145.646558,TAS1,"[""Hydro""]"
MANSLR,Manildra,-33.172831,148.71824,NSW1,"[""Solar""]"
MANNUMB,Mannum,-34.917537,139.262695,SA1,"[""Battery""]"
MANNSF,Mannum 2,-34.9144,139.2681,SA1,"[""Solar""]"
MAPS2,Mannum Pumping Station,-34.920217,139.314438,SA1,"[""Solar""]"
MAROOWF1,Maroona,-37.41875,142.82434,VIC1,"[""Wind""]"
MARYRSF,Maryrorough,-27.708973,151.546869,QLD1,"[""Solar""]"
MEADOWBK,Meadowbank,-42.610835,146.846388,TAS1,"[""Hydro""]"
0MREH,Melbourne A1,-37.661274,144.726302,VIC1,"[""Battery""]"
0MREHA2,Melbourne A2,-37.663934,144.726927,VIC1,"[""Battery""]"
MREHA3,Melbourne A3,-37.663819,144.726859,VIC1,"[""Battery""]"
METZSF,Metz N,-30.4915,151.6701,NSW1,"[""Solar""]"
MIDDLSF1,Middlemount,-22.822235,148.720115,QLD1,"[""Solar""]"
MIDLDPS,Midlands,-42.085747,147.274558,TAS1,"[""Hydro""]"
MILLMERN,Millmerran,-27.961657,151.28091,QLD1,"[""Coal""]"
MINTARO,Mintaro,-33.903149,138.738797,SA1,"[""Gas""]"
MOKOSF,Mokoan,-36.487519,146.122634,VIC1,"[""Solar""]"
MOLNGSF1,Molong,-33.082578,148.900073,NSW1,"[""Solar""]"
MOORAWF1,Moorabool,-37.739433,144.171985,VIC1,"[""Wind""]"
MORANBAH,Moranbah,-21.962469,148.006004,QLD1,"[""Gas""]"
MBAHNTH,Moranbah North,-21.978481,148.004809,QLD1,"[""Gas""]"
MOREESF,Moree,-29.572607,149.861266,NSW1,"[""Solar""]"
MWPS,Morganwhyalla Pipeline,-33.97382,139.193756,SA1,"[""Solar""]"
MORTLK,Mortlake,-38.062628,142.66633,VIC1,"[""Gas""]"
MRTLSWF,Mortlake South,-38.147965,142.882246,VIC1,"[""Wind""]"
MLWF,Mortons Lane,-37.833186,142.465288,VIC1,"[""Wind""]"
MOUSF,Moura,-24.509628,150.076648,QLD1,"[""Solar""]"
MEWF,Mt Emerald,-17.133248,145.380037,QLD1,"[""Wind""]"
MTGELWF,Mt Gellibrand,-38.257657,143.798651,VIC1,"[""Wind""]"
MTMERCER,Mt Mercer,-37.847593,143.870183,VIC1,"[""Wind""]"
MTMILLAR,Mt Millar,-33.619342,136.717568,SA1,"[""Wind""]"
MP,Mt Piper,-33.360715,150.035698,NSW1,"[""Coal""]"
MSTUART,Mt Stuart,-19.337156,146.851239,QLD1,"[""Distillate""]"
MLSP,Mugga Lane,-35.398441,149.14906,NSW1,"[""Solar""]"
MUCRKSF,Munna Creek,-25.882106,152.459626,QLD1,"[""Solar""]"
MUWAWF,Murra Warra,-36.438821,142.246003,VIC1,"[""Wind""]"
MURRAY,Murray,-36.245992,148.188552,VIC1,"[""Hydro""]"
MBPS2,Murray Bridge-Onkaparinga,-35.094093,139.211511,SA1,"[""Solar""]"
MUSSELRO,Musselroe,-40.777105,148.006315,TAS1,"[""Wind""]"
NASF,Narromine,-32.218323,148.254523,NSW1,"[""Solar""]"
NEVERSF,Nevertire,-31.831044,147.705178,NSW1,"[""Solar""]"
NEWENSF,New England,-30.627323,151.556425,NSW1,"[""Solar""]"
NEWPORT,Newport,-37.841374,144.895479,VIC1,"[""Gas""]"
NBHWF,North Brown Hill,-33.228116,138.716888,SA1,"[""Wind""]"
NUMURKSF,Numurkah,-36.159275,145.473891,VIC1,"[""Solar""]"
NYNGAN,Nyngan,-31.563191,147.074195,NSW1,"[""Solar""]"
OAKEY,Oakey,-27.418207,151.678887,QLD1,"[""Gas""]"
OAKEY2SF,Oakey 2,-27.402454,151.642576,QLD1,"[""Solar""]"
OAKEY1SF,Oakey Solar Farm,-27.402454,151.642576,QLD1,"[""Solar""]"
OAKLAND,Oaklands Hill,-37.679481,142.552995,VIC1,"[""Wind""]"
OCPS,Oaky Creek,-23.048717,148.484462,QLD1,"[""Gas""]"
OAKY2,Oaky Creek 2,-23.048717,148.484462,QLD1,"[""Gas""]"
OSBORNE,Osborne,-34.7977,138.508099,SA1,"[""Gas""]"
PALOONA,Paloona,-41.28268,146.24858,TAS1,"[""Hydro""]"
PSF,Parkes,-33.113056,148.076372,NSW1,"[""Solar""]"
NPPPPS,Pelican Point,-34.764365,138.505399,SA1,"[""Gas""]"
PIBESS,Phillip Island,-38.483293,145.22488,VIC1,"[""Battery""]"
PINDARI,Pindari,-29.388034,151.244774,NSW1,"[""Hydro""]"
PIONEER,Pioneer Sugar Mill,-19.557546,147.330825,QLD1,"[""Bioenergy""]"
PTINA,Poatina,-41.805073,146.924365,TAS1,"[""Hydro""]"
PAREPW,Port Augusta Energy Park,-32.595609,137.885629,SA1,"[""Solar"", ""Wind""]"
PORTLCN,Port Lincoln,-34.700616,135.80453,SA1,"[""Distillate""]"
STANVAC,Port Stanvac,-35.110345,138.490872,SA1,"[""Distillate""]"
PORTWF,Portland,-38.361417,141.38456,VIC1,"[""Wind""]"
QUARANTN,Quarantine,-34.779074,138.522455,SA1,"[""Gas""]"
QBYNB,Queanbeyan,-35.339311,149.215101,NSW1,"[""Battery""]"
RACOMIL,Racecourse Mill,-21.163842,149.135738,QLD1,"[""Bioenergy""]"
RANGEB,Rangebank,-38.0852,145.259434,VIC1,"[""Battery""]"
REECE,Reece,-41.723131,145.136468,TAS1,"[""Hydro""]"
REPULSE,Repulse,-42.507987,146.64717,TAS1,"[""Hydro""]"
RESS,Riverina 1,-34.646668,146.034982,NSW1,"[""Battery""]"
RIVNB,Riverina 2,-34.646624,146.035025,NSW1,"[""Battery""]"
RPCG,Rocky Point Cogen,-27.733564,153.326464,QLD1,"[""Bioenergy""]"
ROMA,Roma,-26.576788,148.839485,QLD1,"[""Gas""]"
RRSF,Ross River,-19.425305,146.715686,QLD1,"[""Solar""]"
ROWALLAN,Rowallan,-41.72957,146.218087,TAS1,"[""Hydro""]"
ROYALLA,Royalla,-35.486052,149.141966,NSW1,"[""Solar""]"
RUBICON,Rubicon,-37.292453,145.818202,VIC1,"[""Hydro""]"
RUGBYR,Rugby Run,-21.940469,147.880877,QLD1,"[""Solar""]"
RYANCWF,Ryan Corner,-38.271156,142.14003,VIC1,"[""Wind""]"
RYEPARK,Rye Park,-34.63317,148.95364,NSW1,"[""Wind""]"
SALTCRK,Salt Creek,-37.918698,142.796027,VIC1,"[""Wind""]"
SAPHWF1,Sapphire,-29.710273,151.44558,NSW1,"[""Wind""]"
SEBSF,Sebastopol,-34.603287,147.554757,NSW1,"[""Solar""]"
SHEP1,Shepparton,-36.322223,145.379291,VIC1,"[""Bioenergy""]"
SHOALHAV,Shoalhaven,-34.733085,150.4667,NSW1,"[""Hydro"", ""Pumps""]"
SHOAL,Shoalhaven Starches,-34.8547,150.6138,NSW1,"[""Gas""]"
STWF,Silverton,-31.86095,141.296349,NSW1,"[""Wind""]"
SITHE,Smithfield,-33.850023,150.950051,NSW1,"[""Gas""]"
SMTHBES1,Smithfield,-33.849972,150.947448,NSW1,"[""Battery""]"
SNAPPER,Snapper Point,-34.76452,138.50819,SA1,"[""Gas""]"
SNOWTOWN,Snowtown,-33.691598,138.166022,SA1,"[""Wind""]"
SNOWNTH,Snowtown North,-33.756479,138.143043,SA1,"[""Wind""]"
SNOWSTH,Snowtown South,-33.862624,138.130367,SA1,"[""Wind""]"
SNUG,Snuggery,-37.664996,140.414686,SA1,"[""Distillate""]"
AGLSOM,Somerton,-37.630949,144.953098,VIC1,"[""Gas""]"
SKSF,South Keswick,-32.27286,148.649836,NSW1,"[""Solar""]"
STGEORGE,St George Leagues Club,-33.974819,151.129354,NSW1,"[""Distillate""]"
STANWELL,Stanwell,-23.507501,150.317884,QLD1,"[""Coal""]"
STAPYLTON,Stapylton,-27.736111,153.245931,QLD1,"[""Bioenergy""]"
STARFHILL,Starfish Hill,-35.578983,138.139653,SA1,"[""Wind""]"
STOCKYD,Stockyard Hill,-37.53568,143.252548,VIC1,"[""Wind""]"
STUBSF,Stubbo,-32.26254,149.589068,NSW1,"[""Solar""]"
SMCSF,Sun Metals,-19.437318,146.696015,QLD1,"[""Solar""]"
SUNRSF1,Sunraysia,-34.821489,143.50916,NSW1,"[""Solar""]"
VALDORA,Sunshine Coast,-26.560799,153.025947,QLD1,"[""Solar""]"
SUNTPSF,Suntop,-32.5742,148.860469,NSW1,"[""Solar""]"
SNB1,Supernode,-27.458521,153.111745,QLD1,[]
SRSF,Susan River,-25.420275,152.742028,QLD1,"[""Solar""]"
SWAN_E,Swanbank E,-27.655286,152.818644,QLD1,"[""Gas""]"
TABMILL2,Tableland Mill,-17.119813,145.34513,QLD1,"[""Bioenergy""]"
TAHMOOR,Tahmoor,-34.249117,150.577718,NSW1,"[""Gas""]"
TBSF,Tailem Bend,-35.28,139.49,SA1,"[""Solar""]"
TB2SF,Tailem Bend 2,-35.28,139.49,SA1,"[""Solar"", ""Battery""]"
TALLAWAR,Tallawarra,-34.523089,150.808566,NSW1,"[""Gas""]"
TALWB,Tallawarra B,-34.524833,150.806579,NSW1,"[""Gas""]"
TVCCPS,Tamar Valley,-41.139268,146.906185,TAS1,"[""Gas""]"
TARALGA,Taralga,-34.425387,149.859603,NSW1,"[""Wind""]"
0TARONGBESS,Tarong,-26.780051,151.912068,QLD1,"[""Battery""]"
TARONG,Tarong,-26.774397,151.917838,QLD1,"[""Coal""]"
TARONGN,Tarong North,-26.774397,151.917838,QLD1,"[""Coal""]"
TARRALEA,Tarraleah,-42.301736,146.456661,TAS1,"[""Hydro""]"
TATIARA,Tataria,-36.326977,140.737035,SA1,"[""Distillate""]"
TATURA,Tatura,-36.47915,145.235037,VIC1,"[""Bioenergy""]"
TEMPB,Templers,-34.464594,138.77013,SA1,"[""Battery""]"
BLUFF,The Bluff,-33.367741,138.79379,SA1,"[""Wind""]"
THEDROP,The Drop,-35.973527,145.999274,NSW1,"[""Hydro""]"
TIMWEST,Timboon West,-38.528351,142.916231,VIC1,"[""Wind""]"
TOORAWF,Toora,-38.653528,146.339774,VIC1,"[""Wind""]"
TIB,Torrens Island,-34.805831,138.524192,SA1,"[""Battery""]"
TORRIS,Torrens Island,-34.804559,138.522229,SA1,"[""Gas""]"
TOWER,Tower,-34.219461,150.718012,NSW1,"[""Gas""]"
YABULU,Townsville,-19.200374,146.618265,QLD1,"[""Gas""]"
TGNSS,Traralgon Network Support,-37.833513,144.965955,VIC1,"[""Gas""]"
TREVALLN,Trevallyn,-41.422302,147.112025,TAS1,"[""Hydro""]"
TRIBUTE,Tribute,-41.811468,145.653252,TAS1,"[""Hydro""]"
TULLYSM,Tully Sugar Mill,-17.937329,145.92739,QLD1,"[""Bioenergy""]"
SNOWY2,Tumut,-35.953492,148.369693,NSW1,"[""Hydro""]"
TUMUT3,Tumut 3,-35.610817,148.292644,NSW1,"[""Hydro"", ""Pumps""]"
TUNGATIN,Tungatinah,-42.296396,146.455881,TAS1,"[""Hydro""]"
ULBESS,Ulinda Park,-26.92635,150.717472,QLD1,"[""Battery""]"
URANQ,Uranquinty,-35.180226,147.21566,NSW1,"[""Gas""]"
VP,Vales Point B,-33.164639,151.544116,NSW1,"[""Coal""]"
VPGS,Valley Power Peaking,-38.252601,146.588906,VIC1,"[""Gas""]"
TITREE,Veolia Ti Tree,-27.695551,152.650313,QLD1,"[""Bioenergy""]"
VICMILL,Victoria Mill,-18.650208,146.200866,QLD1,"[""Bioenergy""]"
VBB,Victorian Big Battery,-38.03828,144.291003,VIC1,"[""Battery""]"
WAGGNSF,Wagga North,-35.069081,147.438227,NSW1,"[""Solar""]"
WLWLSF,Walla Walla,-35.746481,146.961838,NSW1,"[""Solar""]"
WALGRV,Wallgrove,-33.817476,150.827276,NSW1,"[""Battery""]"
PRDSO_WALPOLE,Walpole,-34.988023,116.722925,WEM,"[""Hydro""]"
0WAMBOWF,Wambo,-26.603045,151.246876,QLD1,"[""Wind""]"
WANDSF,Wandoan,-26.263564,149.772243,QLD1,"[""Solar""]"
WANDBG,Wandoan South,-26.263986,149.772871,QLD1,"[""Battery""]"
WNSF,Wangaratta,-36.326757,146.359901,VIC1,"[""Solar""]"
WTAHB,Waratah Super Battery,-33.209781,151.544911,NSW1,"[""Battery""]"
WARWSF,Warwick,-28.18321,152.066792,QLD1,"[""Solar""]"
WATERLWF,Waterloo,-33.991095,138.915723,SA1,"[""Wind""]"
WPWF,Wattle Point,-35.11541,137.718672,SA1,"[""Wind""]"
WAUBRAWF,Waubra,-37.357979,143.5926,VIC1,"[""Wind""]"
WELLSF1,Wellington,-32.5207,148.9675,NSW1,"[""Solar""]"
WELNSF,Wellington North,-32.514353,148.957634,NSW1,"[""Solar""]"
WEMENSF1,Wemen,-34.80259,142.543348,VIC1,"[""Solar""]"
WESTILLA,West Illawarra Leagues Club,-34.451645,150.843037,NSW1,"[""Distillate""]"
WKIEWA,West Kiewa,-36.759674,147.186082,VIC1,"[""Hydro""]"
WSTWYSF,West Wyalong,-33.795635,147.314545,NSW1,"[""Solar""]"
WDBESS,Western Downs,-26.952008,150.694188,QLD1,"[""Battery""]"
WDGPH,Western Downs,-26.927922,150.601542,QLD1,"[""Solar""]"
WDBESS2,Western Downs 2,-26.951989,150.694141,QLD1,"[""Battery""]"
WRSF1,White Rock Solar Farm,-29.763292,151.552402,NSW1,"[""Solar""]"
WRWF1,White Rock Wind Farm,-29.7718,151.5755,NSW1,"[""Wind""]"
WHITSF,Whitsunday,-20.537259,147.80475,QLD1,"[""Solar""]"
WHIT1,Whitwood Road,-27.620454,152.824409,QLD1,"[""Bioenergy""]"
WILGAPK,Wilga Park,-30.314444,149.652768,NSW1,"[""Gas""]"
WILGAPKB,Wilga Park B,-30.314444,149.652768,NSW1,"[""Gas""]"
WILLHOV,William Hovel,-36.925216,146.389418,VIC1,"[""Hydro""]"
WGWF,Willogoleche,-33.393569,138.84821,SA1,"[""Wind""]"
WINDHILL,Windy Hill,-17.590399,145.52968,QLD1,"[""Wind""]"
WINGF1,Wingfield,-34.835138,138.548949,SA1,"[""Bioenergy""]"
WINGF2,Wingfield 2,-34.835138,138.548949,SA1,"[""Bioenergy""]"
WINTSF1,Winton,-36.499695,146.114554,VIC1,"[""Solar""]"
WIVENHOE,Wivenhoe,-27.372224,152.632362,QLD1,"[""Hydro"", ""Pumps""]"
WOLARSF,Wollar,-32.407631,149.940737,NSW1,"[""Solar""]"
WOLLERT,Wollert,-37.591792,145.043033,VIC1,"[""Bioenergy""]"
WONWP,Wonthaggi,-38.60513,145.546292,VIC1,"[""Wind""]"
WDLNGN,Woodlawn,-35.05928,149.5749,NSW1,"[""Bioenergy""]"
WOODLWN,Woodlawn,-35.081675,149.570511,NSW1,"[""Wind""]"
WOOLNTH1,Woolnorth,-40.736375,144.694821,TAS1,"[""Wind""]"
WOOLGSF,Woolooga,-26.084522,152.441226,QLD1,"[""Solar""]"
WUNUSF,Wunghnu,-36.164387,145.403731,VIC1,"[""Solar""]"
WYASF,Wyalong,-33.804939,147.295155,NSW1,"[""Solar""]"
WYANGALA,Wyangala A,-33.980371,148.947377,NSW1,"[""Hydro""]"
WYANGALB,Wyangala B,-33.980371,148.947377,NSW1,"[""Hydro""]"
YALLOURN,Yallourn W,-38.177596,146.347508,VIC1,"[""Coal""]"
YSWF,Yaloak South,-37.716474,144.241947,VIC1,"[""Wind""]"
YAMBUK,Yambuk,-38.305278,142.018439,VIC1,"[""Wind""]"
YARANSF,Yarranlea,-27.708939,151.532696,QLD1,"[""Solar""]"
YWNGAHYD,Yarrawonga,-36.009466,145.999568,VIC1,"[""Hydro""]"
YARWUN,Yarwun,-23.8302,151.149692,QLD1,"[""Gas""]"
YATSF1,Yatpool,-34.38073,142.20534,VIC1,"[""Solar""]"
YAWWF,Yawong,-36.471022,143.361722,VIC1,"[""Wind""]"
YENDONWF,Yendon,-37.630952,144.022463,VIC1,"[""Wind""]"
